%time,field.header.seq,field.header.stamp,field.header.frame_id,field.orientation.x,field.orientation.y,field.orientation.z,field.orientation.w,field.orientation_covariance0,field.orientation_covariance1,field.orientation_covariance2,field.orientation_covariance3,field.orientation_covariance4,field.orientation_covariance5,field.orientation_covariance6,field.orientation_covariance7,field.orientation_covariance8,field.angular_velocity.x,field.angular_velocity.y,field.angular_velocity.z,field.angular_velocity_covariance0,field.angular_velocity_covariance1,field.angular_velocity_covariance2,field.angular_velocity_covariance3,field.angular_velocity_covariance4,field.angular_velocity_covariance5,field.angular_velocity_covariance6,field.angular_velocity_covariance7,field.angular_velocity_covariance8,field.linear_acceleration.x,field.linear_acceleration.y,field.linear_acceleration.z,field.linear_acceleration_covariance0,field.linear_acceleration_covariance1,field.linear_acceleration_covariance2,field.linear_acceleration_covariance3,field.linear_acceleration_covariance4,field.linear_acceleration_covariance5,field.linear_acceleration_covariance6,field.linear_acceleration_covariance7,field.linear_acceleration_covariance8
1579082068994318066,18214,1579082068994040012,base_imu_link,0.927722631613,0.372217729695,0.0152574536168,0.0234923520092,0.0025,0.0,0.0,0.0,0.0025,0.0,0.0,0.0,0.0025,0.02,-0.02,0.02,0.02,0.0,0.0,0.0,0.02,0.0,0.0,0.0,0.02,0.113381875,0.49259828125,-8.6461340625,0.04,0.0,0.0,0.0,0.04,0.0,0.0,0.0,0.04
1579082069012097602,18215,1579082069013876914,base_imu_link,0.927623555551,0.372456850654,0.0153770472606,0.0235367798358,0.0025,0.0,0.0,0.0,0.0025,0.0,0.0,0.0,0.0025,0.02,-0.02,0.02,0.02,0.0,0.0,0.0,0.02,0.0,0.0,0.0,0.02,0.076992421875,0.46501890625,-8.6675846875,0.04,0.0,0.0,0.0,0.04,0.0,0.0,0.0,0.04
1579082069031543203,18216,1579082069033874034,base_imu_link,0.92765559984,0.37237830893,0.0152940497693,0.0235706420358,0.0025,0.0,0.0,0.0,0.0025,0.0,0.0,0.0,0.0025,0.02,-0.02,0.02,0.02,0.0,0.0,0.0,0.02,0.0,0.0,0.0,0.02,0.02221671875,0.378833359375,-8.71891296875,0.04,0.0,0.0,0.0,0.04,0.0,0.0,0.0,0.04
1579082069052321102,18217,1579082069053860902,base_imu_link,0.927696924639,0.37231109875,0.014886703251,0.0232647335842,0.0025,0.0,0.0,0.0,0.0025,0.0,0.0,0.0,0.0025,0.03,-0.02,0.03,0.02,0.0,0.0,0.0,0.02,0.0,0.0,0.0,0.02,0.10418875,0.510601484375,-8.65494414062,0.04,0.0,0.0,0.0,0.04,0.0,0.0,0.0,0.04
1579082069072241478,18218,1579082069073910951,base_imu_link,0.927694890876,0.372309798223,0.0149191934668,0.0233456903244,0.0025,0.0,0.0,0.0,0.0025,0.0,0.0,0.0,0.0025,0.03,-0.02,0.02,0.02,0.0,0.0,0.0,0.02,0.0,0.0,0.0,0.02,0.058606171875,0.49259828125,-8.53964703125,0.04,0.0,0.0,0.0,0.04,0.0,0.0,0.0,0.04
1579082069092702172,18219,1579082069093898057,base_imu_link,0.92772486206,0.372229914638,0.0148686889283,0.0234604572453,0.0025,0.0,0.0,0.0,0.0025,0.0,0.0,0.0,0.0025,0.02,-0.02,0.02,0.02,0.0,0.0,0.0,0.02,0.0,0.0,0.0,0.02,0.122575,0.456208828125,-8.6890353125,0.04,0.0,0.0,0.0,0.04,0.0,0.0,0.0,0.04
1579082069111546309,18220,1579082069113915920,base_imu_link,0.927725803996,0.372225156465,0.0150305892609,0.0233954457328,0.0025,0.0,0.0,0.0,0.0025,0.0,0.0,0.0,0.0025,0.02,-0.02,0.02,0.02,0.0,0.0,0.0,0.02,0.0,0.0,0.0,0.02,0.04060296875,0.542394375,-8.71891296875,0.04,0.0,0.0,0.0,0.04,0.0,0.0,0.0,0.04
1579082069131420995,18221,1579082069133811950,base_imu_link,0.927750677782,0.372147445192,0.0148831168701,0.0237371384881,0.0025,0.0,0.0,0.0,0.0025,0.0,0.0,0.0,0.0025,0.02,-0.02,0.02,0.02,0.0,0.0,0.0,0.02,0.0,0.0,0.0,0.02,0.1179784375,0.46961546875,-8.63770703125,0.04,0.0,0.0,0.0,0.04,0.0,0.0,0.0,0.04
1579082069151972942,18222,1579082069153856992,base_imu_link,0.927785705099,0.372065390407,0.0149295319676,0.0236249814759,0.0025,0.0,0.0,0.0,0.0025,0.0,0.0,0.0,0.0025,0.03,-0.02,0.02,0.02,0.0,0.0,0.0,0.02,0.0,0.0,0.0,0.02,0.076992421875,0.46501890625,-8.51819640625,0.04,0.0,0.0,0.0,0.04,0.0,0.0,0.0,0.04
1579082069171623225,18223,1579082069173847913,base_imu_link,0.927818170397,0.371984424414,0.0149274702422,0.0236262842333,0.0025,0.0,0.0,0.0,0.0025,0.0,0.0,0.0,0.0025,0.03,-0.02,0.03,0.02,0.0,0.0,0.0,0.02,0.0,0.0,0.0,0.02,0.1179784375,0.519794609375,-8.54386054687,0.04,0.0,0.0,0.0,0.04,0.0,0.0,0.0,0.04
1579082069193898051,18224,1579082069193739891,base_imu_link,0.92781499607,0.371976998475,0.0151543092204,0.0237232498994,0.0025,0.0,0.0,0.0,0.0025,0.0,0.0,0.0,0.0025,0.02,-0.02,0.02,0.02,0.0,0.0,0.0,0.02,0.0,0.0,0.0,0.02,0.072395859375,0.49259828125,-8.65915765625,0.04,0.0,0.0,0.0,0.04,0.0,0.0,0.0,0.04
1579082069211842778,18225,1579082069213749885,base_imu_link,0.927877349599,0.371816151062,0.0151016521901,0.0238393374851,0.0025,0.0,0.0,0.0,0.0025,0.0,0.0,0.0,0.0025,0.02,-0.02,0.02,0.02,0.0,0.0,0.0,0.02,0.0,0.0,0.0,0.02,0.01762015625,0.510601484375,-8.61204289063,0.04,0.0,0.0,0.0,0.04,0.0,0.0,0.0,0.04
1579082069231596310,18226,1579082069233724117,base_imu_link,0.9278387079,0.371904172627,0.0148447994935,0.0241298659989,0.0025,0.0,0.0,0.0,0.0025,0.0,0.0,0.0,0.0025,0.02,-0.02,0.02,0.02,0.0,0.0,0.0,0.02,0.0,0.0,0.0,0.02,0.1087853125,0.4060296875,-8.65494414062,0.04,0.0,0.0,0.0,0.04,0.0,0.0,0.0,0.04
1579082069251468934,18227,1579082069253722906,base_imu_link,0.92781511912,0.371987909808,0.0147980153988,0.0237722197072,0.0025,0.0,0.0,0.0,0.0025,0.0,0.0,0.0,0.0025,0.03,-0.02,0.02,0.02,0.0,0.0,0.0,0.02,0.0,0.0,0.0,0.02,0.058606171875,0.510601484375,-8.62085296875,0.04,0.0,0.0,0.0,0.04,0.0,0.0,0.0,0.04
1579082069271745466,18228,1579082069273773908,base_imu_link,0.927844993288,0.371908046241,0.0147474347012,0.023886957569,0.0025,0.0,0.0,0.0,0.0025,0.0,0.0,0.0,0.0025,0.02,-0.02,0.03,0.02,0.0,0.0,0.0,0.02,0.0,0.0,0.0,0.02,0.122575,0.515198046875,-8.7656446875,0.04,0.0,0.0,0.0,0.04,0.0,0.0,0.0,0.04
1579082069293949019,18229,1579082069293731927,base_imu_link,0.927841826776,0.371900640374,0.0149742658638,0.0239839433068,0.0025,0.0,0.0,0.0,0.0025,0.0,0.0,0.0,0.0025,0.02,-0.02,0.02,0.02,0.0,0.0,0.0,0.02,0.0,0.0,0.0,0.02,0.10418875,0.41062625,-8.62928,0.04,0.0,0.0,0.0,0.04,0.0,0.0,0.0,0.04
1579082069311245458,18230,1579082069313711881,base_imu_link,0.927913458238,0.371740205897,0.0149537248937,0.0237111672415,0.0025,0.0,0.0,0.0,0.0025,0.0,0.0,0.0,0.0025,0.02,-0.02,0.02,0.02,0.0,0.0,0.0,0.02,0.0,0.0,0.0,0.02,0.063202734375,0.46501890625,-8.650730625,0.04,0.0,0.0,0.0,0.04,0.0,0.0,0.0,0.04
1579082069331146366,18231,1579082069333663940,base_imu_link,0.927947475148,0.371662921379,0.0148382524419,0.0236639494122,0.0025,0.0,0.0,0.0,0.0025,0.0,0.0,0.0,0.0025,0.02,-0.02,0.02,0.02,0.0,0.0,0.0,0.02,0.0,0.0,0.0,0.02,-0.0597553125,0.460805390625,-8.57373820313,0.04,0.0,0.0,0.0,0.04,0.0,0.0,0.0,0.04
1579082069351834181,18232,1579082069353682041,base_imu_link,0.92791143813,0.371760543912,0.0142735458188,0.0238898904798,0.0025,0.0,0.0,0.0,0.0025,0.0,0.0,0.0,0.0025,0.02,-0.02,0.02,0.02,0.0,0.0,0.0,0.02,0.0,0.0,0.0,0.02,0.063202734375,0.564994140625,-8.5695246875,0.04,0.0,0.0,0.0,0.04,0.0,0.0,0.0,0.04
1579082069374101656,18233,1579082069373661041,base_imu_link,0.927969471039,0.371597226567,0.0142856869632,0.024167771418,0.0025,0.0,0.0,0.0,0.0025,0.0,0.0,0.0,0.0025,0.02,-0.02,0.02,0.02,0.0,0.0,0.0,0.02,0.0,0.0,0.0,0.02,0.1179784375,0.578783828125,-8.71010289062,0.04,0.0,0.0,0.0,0.04,0.0,0.0,0.0,0.04
1579082069399393371,18234,1579082069393687963,base_imu_link,0.927927529436,0.371667087038,0.0146119076337,0.0245065028528,0.0025,0.0,0.0,0.0,0.0025,0.0,0.0,0.0,0.0025,0.02,-0.02,0.02,0.02,0.0,0.0,0.0,0.02,0.0,0.0,0.0,0.02,0.081588984375,0.397219609375,-8.73576703125,0.04,0.0,0.0,0.0,0.04,0.0,0.0,0.0,0.04
1579082069433123259,18235,1579082069413553953,base_imu_link,0.927871684051,0.371831714193,0.0145673548286,0.024147596762,0.0025,0.0,0.0,0.0,0.0025,0.0,0.0,0.0,0.0025,0.02,-0.02,0.02,0.02,0.0,0.0,0.0,0.02,0.0,0.0,0.0,0.02,0.081588984375,0.342826953125,-8.68482179687,0.04,0.0,0.0,0.0,0.04,0.0,0.0,0.0,0.04
1579082069440865974,18236,1579082069433558940,base_imu_link,0.927851747879,0.371920262428,0.0143747270338,0.0236605066549,0.0025,0.0,0.0,0.0,0.0025,0.0,0.0,0.0,0.0025,0.02,-0.02,0.02,0.02,0.0,0.0,0.0,0.02,0.0,0.0,0.0,0.02,0.172754140625,0.35163703125,-8.64192054687,0.04,0.0,0.0,0.0,0.04,0.0,0.0,0.0,0.04
1579082069460027516,18237,1579082069453562021,base_imu_link,0.927833503614,0.37199941741,0.0145058522436,0.0230435081596,0.0025,0.0,0.0,0.0,0.0025,0.0,0.0,0.0,0.0025,0.02,-0.02,0.02,0.02,0.0,0.0,0.0,0.02,0.0,0.0,0.0,0.02,0.113381875,0.578783828125,-8.64192054687,0.04,0.0,0.0,0.0,0.04,0.0,0.0,0.0,0.04
1579082069472544368,18238,1579082069473634958,base_imu_link,0.92785678252,0.371907350306,0.0148280437958,0.0233846752774,0.0025,0.0,0.0,0.0,0.0025,0.0,0.0,0.0,0.0025,0.02,-0.02,0.02,0.02,0.0,0.0,0.0,0.02,0.0,0.0,0.0,0.02,0.1271715625,0.460805390625,-8.6675846875,0.04,0.0,0.0,0.0,0.04,0.0,0.0,0.0,0.04
1579082069493666893,18239,1579082069493634939,base_imu_link,0.927924643968,0.371741964901,0.0149534563899,0.0232413594759,0.0025,0.0,0.0,0.0,0.0025,0.0,0.0,0.0,0.0025,0.02,-0.02,0.02,0.02,0.0,0.0,0.0,0.02,0.0,0.0,0.0,0.02,0.154367890625,0.5286046875,-8.61204289063,0.04,0.0,0.0,0.0,0.04,0.0,0.0,0.0,0.04
1579082069511336594,18240,1579082069513552904,base_imu_link,0.927917397181,0.37173192426,0.0152451509592,0.0235003375726,0.0025,0.0,0.0,0.0,0.0025,0.0,0.0,0.0,0.0025,0.02,-0.02,0.02,0.02,0.0,0.0,0.0,0.02,0.0,0.0,0.0,0.02,0.03600640625,0.4060296875,-8.5480740625,0.04,0.0,0.0,0.0,0.04,0.0,0.0,0.0,0.04
1579082069531202629,18241,1579082069533540964,base_imu_link,0.927955049203,0.371659680611,0.0149838616243,0.023323643766,0.0025,0.0,0.0,0.0,0.0025,0.0,0.0,0.0,0.0025,0.02,-0.02,0.02,0.02,0.0,0.0,0.0,0.02,0.0,0.0,0.0,0.02,0.154367890625,0.456208828125,-8.69746234375,0.04,0.0,0.0,0.0,0.04,0.0,0.0,0.0,0.04
1579082069551078032,18242,1579082069553524971,base_imu_link,0.927925983138,0.371734848065,0.0151963583019,0.0231439678054,0.0025,0.0,0.0,0.0,0.0025,0.0,0.0,0.0,0.0025,0.03,-0.02,0.02,0.02,0.0,0.0,0.0,0.02,0.0,0.0,0.0,0.02,0.172754140625,0.506004921875,-8.5480740625,0.04,0.0,0.0,0.0,0.04,0.0,0.0,0.0,0.04
1579082069571519597,18243,1579082069573509931,base_imu_link,0.927957679693,0.371645378837,0.0154696801569,0.0231289014625,0.0025,0.0,0.0,0.0,0.0025,0.0,0.0,0.0,0.0025,0.03,-0.02,0.02,0.02,0.0,0.0,0.0,0.02,0.0,0.0,0.0,0.02,-0.014172734375,0.555801015625,-8.61625640625,0.04,0.0,0.0,0.0,0.04,0.0,0.0,0.0,0.04
1579082069593585973,18244,1579082069593676090,base_imu_link,0.927947318593,0.371652022797,0.0151945636211,0.02361510331,0.0025,0.0,0.0,0.0,0.0025,0.0,0.0,0.0,0.0025,0.02,-0.02,0.02,0.02,0.0,0.0,0.0,0.02,0.0,0.0,0.0,0.02,0.02681328125,0.41062625,-8.77445476562,0.04,0.0,0.0,0.0,0.04,0.0,0.0,0.0,0.04
1579082069610924559,18245,1579082069613487958,base_imu_link,0.927854738289,0.371906054899,0.0148604987782,0.0234656459675,0.0025,0.0,0.0,0.0,0.0025,0.0,0.0,0.0,0.0025,0.02,-0.02,0.02,0.02,0.0,0.0,0.0,0.02,0.0,0.0,0.0,0.02,0.049413046875,0.5286046875,-8.4714646875,0.04,0.0,0.0,0.0,0.04,0.0,0.0,0.0,0.04
1579082069631027420,18246,1579082069633577108,base_imu_link,0.927847577656,0.371906941248,0.014795940825,0.0237735109871,0.0025,0.0,0.0,0.0,0.0025,0.0,0.0,0.0,0.0025,0.02,-0.02,0.03,0.02,0.0,0.0,0.0,0.02,0.0,0.0,0.0,0.02,0.181947265625,0.41062625,-8.50134234375,0.04,0.0,0.0,0.0,0.04,0.0,0.0,0.0,0.04
1579082069651276336,18247,1579082069653472900,base_imu_link,0.927888588872,0.37181794076,0.0151013438121,0.0233695311378,0.0025,0.0,0.0,0.0,0.0025,0.0,0.0,0.0,0.0025,0.03,-0.02,0.03,0.02,0.0,0.0,0.0,0.02,0.0,0.0,0.0,0.02,0.131768125,0.451612265625,-8.59518882812,0.04,0.0,0.0,0.0,0.04,0.0,0.0,0.0,0.04
1579082069671161281,18248,1579082069673424005,base_imu_link,0.92789151651,0.371814495743,0.0152308249299,0.0232236154835,0.0025,0.0,0.0,0.0,0.0025,0.0,0.0,0.0,0.0025,0.02,-0.02,0.02,0.02,0.0,0.0,0.0,0.02,0.0,0.0,0.0,0.02,0.067799296875,0.460805390625,-8.748790625,0.04,0.0,0.0,0.0,0.04,0.0,0.0,0.0,0.04
1579082069693193246,18249,1579082069693388938,base_imu_link,0.927892653492,0.371820570779,0.0150364491095,0.023207583673,0.0025,0.0,0.0,0.0,0.0025,0.0,0.0,0.0,0.0025,0.02,-0.02,0.02,0.02,0.0,0.0,0.0,0.02,0.0,0.0,0.0,0.02,0.03600640625,0.4152228125,-8.6461340625,0.04,0.0,0.0,0.0,0.04,0.0,0.0,0.0,0.04
1579082069711078829,18250,1579082069713387012,base_imu_link,0.927895786788,0.371827897193,0.0148096238402,0.0231105770412,0.0025,0.0,0.0,0.0,0.0025,0.0,0.0,0.0,0.0025,0.02,-0.02,0.02,0.02,0.0,0.0,0.0,0.02,0.0,0.0,0.0,0.02,0.072395859375,0.4290125,-8.7656446875,0.04,0.0,0.0,0.0,0.04,0.0,0.0,0.0,0.04
1579082069732038168,18251,1579082069733354091,base_imu_link,0.927964232686,0.371670857129,0.0146597505899,0.0229836578695,0.0025,0.0,0.0,0.0,0.0025,0.0,0.0,0.0,0.0025,0.02,-0.02,0.02,0.02,0.0,0.0,0.0,0.02,0.0,0.0,0.0,0.02,0.1179784375,0.501408359375,-8.63770703125,0.04,0.0,0.0,0.0,0.04,0.0,0.0,0.0,0.04
1579082069751535079,18252,1579082069753405094,base_imu_link,0.927960668866,0.371665943165,0.014805590058,0.0231131614561,0.0025,0.0,0.0,0.0,0.0025,0.0,0.0,0.0,0.0025,0.03,-0.02,0.02,0.02,0.0,0.0,0.0,0.02,0.0,0.0,0.0,0.02,0.0903990625,0.5377978125,-8.55650109375,0.04,0.0,0.0,0.0,0.04,0.0,0.0,0.0,0.04
1579082069772770336,18253,1579082069773324966,base_imu_link,0.927954586054,0.371662054334,0.0149028914659,0.0233561001963,0.0025,0.0,0.0,0.0,0.0025,0.0,0.0,0.0,0.0025,0.02,-0.02,0.02,0.02,0.0,0.0,0.0,0.02,0.0,0.0,0.0,0.02,0.1363646875,0.460805390625,-8.72312648437,0.04,0.0,0.0,0.0,0.04,0.0,0.0,0.0,0.04
1579082069793065940,18254,1579082069793505907,base_imu_link,0.927957980474,0.37165624498,0.01511336853,0.0231777508506,0.0025,0.0,0.0,0.0,0.0025,0.0,0.0,0.0,0.0025,0.02,-0.02,0.02,0.02,0.0,0.0,0.0,0.02,0.0,0.0,0.0,0.02,0.149771328125,0.397219609375,-8.6675846875,0.04,0.0,0.0,0.0,0.04,0.0,0.0,0.0,0.04
1579082069812348859,18255,1579082069813431024,base_imu_link,0.927964870765,0.371655478184,0.0151780098025,0.0228698968239,0.0025,0.0,0.0,0.0,0.0025,0.0,0.0,0.0,0.0025,0.02,-0.02,0.02,0.02,0.0,0.0,0.0,0.02,0.0,0.0,0.0,0.02,0.1179784375,0.456208828125,-8.72734,0.04,0.0,0.0,0.0,0.04,0.0,0.0,0.0,0.04
1579082069831023117,18256,1579082069833293914,base_imu_link,0.927999706095,0.371573466919,0.0152245613681,0.022757787706,0.0025,0.0,0.0,0.0,0.0025,0.0,0.0,0.0,0.0025,0.02,-0.02,0.02,0.02,0.0,0.0,0.0,0.02,0.0,0.0,0.0,0.02,0.0903990625,0.578783828125,-8.73155351562,0.04,0.0,0.0,0.0,0.04,0.0,0.0,0.0,0.04
1579082069850730187,18257,1579082069853199958,base_imu_link,0.927989260191,0.371569176491,0.0153057170101,0.0231951520349,0.0025,0.0,0.0,0.0,0.0025,0.0,0.0,0.0,0.0025,0.02,-0.02,0.02,0.02,0.0,0.0,0.0,0.02,0.0,0.0,0.0,0.02,0.1271715625,0.347423515625,-8.57795171875,0.04,0.0,0.0,0.0,0.04,0.0,0.0,0.0,0.04
1579082069871950557,18258,1579082069873195886,base_imu_link,0.928131738813,0.371248489283,0.0152652036445,0.0226496836668,0.0025,0.0,0.0,0.0,0.0025,0.0,0.0,0.0,0.0025,0.02,-0.02,0.02,0.02,0.0,0.0,0.0,0.02,0.0,0.0,0.0,0.02,0.03600640625,0.48340515625,-8.68482179687,0.04,0.0,0.0,0.0,0.04,0.0,0.0,0.0,0.04
1579082069893943455,18259,1579082069893273115,base_imu_link,0.928126525195,0.371252898724,0.0150870448027,0.0229089392588,0.0025,0.0,0.0,0.0,0.0025,0.0,0.0,0.0,0.0025,0.02,-0.02,0.02,0.02,0.0,0.0,0.0,0.02,0.0,0.0,0.0,0.02,0.10418875,0.4244159375,-8.6461340625,0.04,0.0,0.0,0.0,0.04,0.0,0.0,0.0,0.04
1579082069913136740,18260,1579082069913167953,base_imu_link,0.928130926288,0.371253183425,0.0151032338093,0.0227145282441,0.0025,0.0,0.0,0.0,0.0025,0.0,0.0,0.0,0.0025,0.02,-0.02,0.02,0.02,0.0,0.0,0.0,0.02,0.0,0.0,0.0,0.02,-0.023365859375,0.48800171875,-8.63770703125,0.04,0.0,0.0,0.0,0.04,0.0,0.0,0.0,0.04
1579082069931781176,18261,1579082069933197975,base_imu_link,0.928061504087,0.371427903927,0.0146537329801,0.0229874949955,0.0025,0.0,0.0,0.0,0.0025,0.0,0.0,0.0,0.0025,0.02,-0.02,0.03,0.02,0.0,0.0,0.0,0.02,0.0,0.0,0.0,0.02,0.054009609375,0.4336090625,-8.650730625,0.04,0.0,0.0,0.0,0.04,0.0,0.0,0.0,0.04
1579082069951915595,18262,1579082069953191995,base_imu_link,0.928129858291,0.371270790984,0.0145039363618,0.0228604842802,0.0025,0.0,0.0,0.0,0.0025,0.0,0.0,0.0,0.0025,0.03,-0.02,0.03,0.02,0.0,0.0,0.0,0.02,0.0,0.0,0.0,0.02,0.081588984375,0.633176484375,-8.6890353125,0.04,0.0,0.0,0.0,0.04,0.0,0.0,0.0,0.04
1579082069971655354,18263,1579082069973171949,base_imu_link,0.928081270352,0.371341566634,0.0147651801568,0.0235071471176,0.0025,0.0,0.0,0.0,0.0025,0.0,0.0,0.0,0.0025,0.02,-0.02,0.02,0.02,0.0,0.0,0.0,0.02,0.0,0.0,0.0,0.02,0.154367890625,0.5377978125,-8.63349351562,0.04,0.0,0.0,0.0,0.04,0.0,0.0,0.0,0.04
1579082069993841265,18264,1579082069993213891,base_imu_link,0.928076526513,0.371330490421,0.0151053389351,0.0236528339557,0.0025,0.0,0.0,0.0,0.0025,0.0,0.0,0.0,0.0025,0.02,-0.02,0.02,0.02,0.0,0.0,0.0,0.02,0.0,0.0,0.0,0.02,-0.046348671875,0.48800171875,-8.650730625,0.04,0.0,0.0,0.0,0.04,0.0,0.0,0.0,0.04
1579082070011261718,18265,1579082070013169050,base_imu_link,0.928103896354,0.371262592783,0.0146497710303,0.0239296673839,0.0025,0.0,0.0,0.0,0.0025,0.0,0.0,0.0,0.0025,0.02,-0.02,0.02,0.02,0.0,0.0,0.0,0.02,0.0,0.0,0.0,0.02,0.054009609375,0.53320125,-8.65494414062,0.04,0.0,0.0,0.0,0.04,0.0,0.0,0.0,0.04
1579082070031019764,18266,1579082070033159017,base_imu_link,0.928064136007,0.371344559216,0.0145871151618,0.0242362098671,0.0025,0.0,0.0,0.0,0.0025,0.0,0.0,0.0,0.0025,0.02,-0.02,0.02,0.02,0.0,0.0,0.0,0.02,0.0,0.0,0.0,0.02,0.049413046875,0.60598015625,-8.53543351562,0.04,0.0,0.0,0.0,0.04,0.0,0.0,0.0,0.04
1579082070050524024,18267,1579082070053144931,base_imu_link,0.928052916972,0.371340602168,0.014668163745,0.024673578043,0.0025,0.0,0.0,0.0,0.0025,0.0,0.0,0.0,0.0025,0.03,-0.02,0.02,0.02,0.0,0.0,0.0,0.02,0.0,0.0,0.0,0.02,0.0903990625,0.49259828125,-8.57795171875,0.04,0.0,0.0,0.0,0.04,0.0,0.0,0.0,0.04
1579082070071983829,18268,1579082070073149919,base_imu_link,0.928052916972,0.371340602168,0.014668163745,0.024673578043,0.0025,0.0,0.0,0.0,0.0025,0.0,0.0,0.0,0.0025,0.03,-0.02,0.02,0.02,0.0,0.0,0.0,0.02,0.0,0.0,0.0,0.02,0.04060296875,0.48800171875,-8.67601171875,0.04,0.0,0.0,0.0,0.04,0.0,0.0,0.0,0.04
1579082070095600350,18269,1579082070093118906,base_imu_link,0.928019944928,0.371424028902,0.0145893399298,0.0247047309138,0.0025,0.0,0.0,0.0,0.0025,0.0,0.0,0.0,0.0025,0.02,-0.02,0.02,0.02,0.0,0.0,0.0,0.02,0.0,0.0,0.0,0.02,0.10418875,0.4290125,-8.6890353125,0.04,0.0,0.0,0.0,0.04,0.0,0.0,0.0,0.04
1579082070110685898,18270,1579082070113018989,base_imu_link,0.928057209189,0.371343156589,0.0146033523604,0.0245116018776,0.0025,0.0,0.0,0.0,0.0025,0.0,0.0,0.0,0.0025,0.02,-0.02,0.02,0.02,0.0,0.0,0.0,0.02,0.0,0.0,0.0,0.02,0.072395859375,0.4336090625,-8.65494414062,0.04,0.0,0.0,0.0,0.04,0.0,0.0,0.0,0.04
1579082070131096610,18271,1579082070133048057,base_imu_link,0.928031184837,0.371427954425,0.0145082522328,0.0242673702398,0.0025,0.0,0.0,0.0,0.0025,0.0,0.0,0.0,0.0025,0.02,-0.02,0.02,0.02,0.0,0.0,0.0,0.02,0.0,0.0,0.0,0.02,0.1271715625,0.53320125,-8.42434992187,0.04,0.0,0.0,0.0,0.04,0.0,0.0,0.0,0.04
1579082070151054940,18272,1579082070153034925,base_imu_link,0.927993477206,0.371500266841,0.0147695789437,0.0244441718432,0.0025,0.0,0.0,0.0,0.0025,0.0,0.0,0.0,0.0025,0.02,-0.02,0.02,0.02,0.0,0.0,0.0,0.02,0.0,0.0,0.0,0.02,0.19075734375,0.53320125,-8.63349351562,0.04,0.0,0.0,0.0,0.04,0.0,0.0,0.0,0.04
1579082070172127001,18273,1579082070173176050,base_imu_link,0.927929114596,0.371648699961,0.0152111190718,0.0243602947247,0.0025,0.0,0.0,0.0,0.0025,0.0,0.0,0.0,0.0025,0.03,-0.02,0.02,0.02,0.0,0.0,0.0,0.02,0.0,0.0,0.0,0.02,0.163561015625,0.515198046875,-8.62085296875,0.04,0.0,0.0,0.0,0.04,0.0,0.0,0.0,0.04
1579082070194815768,18274,1579082070193077087,base_imu_link,0.927861968986,0.371798091346,0.0156041093736,0.0243897017431,0.0025,0.0,0.0,0.0,0.0025,0.0,0.0,0.0,0.0025,0.02,-0.02,0.02,0.02,0.0,0.0,0.0,0.02,0.0,0.0,0.0,0.02,0.072395859375,0.501408359375,-8.65915765625,0.04,0.0,0.0,0.0,0.04,0.0,0.0,0.0,0.04
1579082070210351831,18275,1579082070212965965,base_imu_link,0.927859345116,0.3717992135,0.0155555937386,0.0245031431826,0.0025,0.0,0.0,0.0,0.0025,0.0,0.0,0.0,0.0025,0.02,-0.02,0.02,0.02,0.0,0.0,0.0,0.02,0.0,0.0,0.0,0.02,0.094995625,0.41062625,-8.607829375,0.04,0.0,0.0,0.0,0.04,0.0,0.0,0.0,0.04
1579082070230813655,18276,1579082070232988119,base_imu_link,0.92783539219,0.371885591104,0.0154279203645,0.024177911437,0.0025,0.0,0.0,0.0,0.0025,0.0,0.0,0.0,0.0025,0.02,-0.02,0.02,0.02,0.0,0.0,0.0,0.02,0.0,0.0,0.0,0.02,0.23212640625,0.4152228125,-8.45844109375,0.04,0.0,0.0,0.0,0.04,0.0,0.0,0.0,0.04
1579082070250683467,18277,1579082070253062009,base_imu_link,0.927779499483,0.372036893912,0.0158204603315,0.0237373743567,0.0025,0.0,0.0,0.0,0.0025,0.0,0.0,0.0,0.0025,0.02,-0.02,0.02,0.02,0.0,0.0,0.0,0.02,0.0,0.0,0.0,0.02,0.145174765625,0.397219609375,-8.50134234375,0.04,0.0,0.0,0.0,0.04,0.0,0.0,0.0,0.04
1579082070273629362,18278,1579082070272958040,base_imu_link,0.927821022673,0.371956575662,0.015850464705,0.0233499138489,0.0025,0.0,0.0,0.0,0.0025,0.0,0.0,0.0,0.0025,0.02,-0.02,0.02,0.02,0.0,0.0,0.0,0.02,0.0,0.0,0.0,0.02,0.1179784375,0.5377978125,-8.5480740625,0.04,0.0,0.0,0.0,0.04,0.0,0.0,0.0,0.04
1579082070292551049,18279,1579082070292862892,base_imu_link,0.927815291048,0.371949961931,0.0160287983367,0.0235603298111,0.0025,0.0,0.0,0.0,0.0025,0.0,0.0,0.0,0.0025,0.02,-0.02,0.02,0.02,0.0,0.0,0.0,0.02,0.0,0.0,0.0,0.02,0.01302359375,0.53320125,-8.72734,0.04,0.0,0.0,0.0,0.04,0.0,0.0,0.0,0.04
1579082070310363052,18280,1579082070312875986,base_imu_link,0.927806912171,0.371958087211,0.0157213952043,0.0239656591652,0.0025,0.0,0.0,0.0,0.0025,0.0,0.0,0.0,0.0025,0.02,-0.02,0.02,0.02,0.0,0.0,0.0,0.02,0.0,0.0,0.0,0.02,0.086185546875,0.456208828125,-8.6675846875,0.04,0.0,0.0,0.0,0.04,0.0,0.0,0.0,0.04
1579082070331082422,18281,1579082070332891941,base_imu_link,0.927776082541,0.372042874207,0.0156100664393,0.0239158157336,0.0025,0.0,0.0,0.0,0.0025,0.0,0.0,0.0,0.0025,0.02,-0.02,0.03,0.02,0.0,0.0,0.0,0.02,0.0,0.0,0.0,0.02,0.00383046875,0.5377978125,-8.59940234375,0.04,0.0,0.0,0.0,0.04,0.0,0.0,0.0,0.04
1579082070350178921,18282,1579082070352875947,base_imu_link,0.927802447423,0.371969012708,0.0153490738351,0.0242090494212,0.0025,0.0,0.0,0.0,0.0025,0.0,0.0,0.0,0.0025,0.03,-0.02,0.02,0.02,0.0,0.0,0.0,0.02,0.0,0.0,0.0,0.02,0.1271715625,0.5469909375,-8.79130882812,0.04,0.0,0.0,0.0,0.04,0.0,0.0,0.0,0.04
1579082070373135533,18283,1579082070375098943,base_imu_link,0.927799188478,0.371961388817,0.0155759062466,0.0243060122802,0.0025,0.0,0.0,0.0,0.0025,0.0,0.0,0.0,0.0025,0.02,-0.02,0.02,0.02,0.0,0.0,0.0,0.02,0.0,0.0,0.0,0.02,0.1179784375,0.682972578125,-8.63770703125,0.04,0.0,0.0,0.0,0.04,0.0,0.0,0.0,0.04
1579082070395114388,18284,1579082070395479917,base_imu_link,0.927780317573,0.371946503324,0.0159489929614,0.025002212173,0.0025,0.0,0.0,0.0,0.0025,0.0,0.0,0.0,0.0025,0.02,-0.02,0.02,0.02,0.0,0.0,0.0,0.02,0.0,0.0,0.0,0.02,-0.014172734375,0.47880859375,-8.71891296875,0.04,0.0,0.0,0.0,0.04,0.0,0.0,0.0,0.04
1579082070412982676,18285,1579082070415227890,base_imu_link,0.927844818908,0.371798583684,0.0155073851913,0.0250863747916,0.0025,0.0,0.0,0.0,0.0025,0.0,0.0,0.0,0.0025,0.02,-0.02,0.02,0.02,0.0,0.0,0.0,0.02,0.0,0.0,0.0,0.02,-0.009576171875,0.447015703125,-8.6675846875,0.04,0.0,0.0,0.0,0.04,0.0,0.0,0.0,0.04
1579082070435821855,18286,1579082070437407016,base_imu_link,0.927848640553,0.371815078226,0.0150052423612,0.0250058099095,0.0025,0.0,0.0,0.0,0.0025,0.0,0.0,0.0,0.0025,0.02,-0.02,0.02,0.02,0.0,0.0,0.0,0.02,0.0,0.0,0.0,0.02,0.154367890625,0.58299734375,-8.48831875,0.04,0.0,0.0,0.0,0.04,0.0,0.0,0.0,0.04
1579082070452714117,18287,1579082070455054044,base_imu_link,0.927841539044,0.371802272993,0.0153779105147,0.0252322826971,0.0025,0.0,0.0,0.0,0.0025,0.0,0.0,0.0,0.0025,0.02,-0.02,0.02,0.02,0.0,0.0,0.0,0.02,0.0,0.0,0.0,0.02,0.177350703125,0.24744828125,-8.57373820313,0.04,0.0,0.0,0.0,0.04,0.0,0.0,0.0,0.04
1579082070478100722,18288,1579082070478796005,base_imu_link,0.927805041788,0.371967903708,0.015397569962,0.0240955988328,0.0025,0.0,0.0,0.0,0.0025,0.0,0.0,0.0,0.0025,0.03,-0.02,0.02,0.02,0.0,0.0,0.0,0.02,0.0,0.0,0.0,0.02,0.094995625,0.506004921875,-8.72734,0.04,0.0,0.0,0.0,0.04,0.0,0.0,0.0,0.04
1579082070494068721,18289,1579082070494996070,base_imu_link,0.927770471779,0.372047523264,0.0154321399711,0.0241752183887,0.0025,0.0,0.0,0.0,0.0025,0.0,0.0,0.0,0.0025,0.02,-0.02,0.02,0.02,0.0,0.0,0.0,0.02,0.0,0.0,0.0,0.02,0.072395859375,0.519794609375,-8.69746234375,0.04,0.0,0.0,0.0,0.04,0.0,0.0,0.0,0.04
1579082070512708695,18290,1579082070514909029,base_imu_link,0.927733273513,0.372128253793,0.0154182477447,0.0243682905061,0.0025,0.0,0.0,0.0,0.0025,0.0,0.0,0.0,0.0025,0.02,-0.02,0.02,0.02,0.0,0.0,0.0,0.02,0.0,0.0,0.0,0.02,0.063202734375,0.451612265625,-8.54386054687,0.04,0.0,0.0,0.0,0.04,0.0,0.0,0.0,0.04
1579082070530631059,18291,1579082070532787084,base_imu_link,0.927734898091,0.372132056124,0.0153048227465,0.02431982873,0.0025,0.0,0.0,0.0,0.0025,0.0,0.0,0.0,0.0025,0.02,-0.02,0.02,0.02,0.0,0.0,0.0,0.02,0.0,0.0,0.0,0.02,0.0995921875,0.456208828125,-8.650730625,0.04,0.0,0.0,0.0,0.04,0.0,0.0,0.0,0.04
1579082070553075637,18292,1579082070554927110,base_imu_link,0.92777159992,0.372053759723,0.0152377649842,0.0241592379127,0.0025,0.0,0.0,0.0,0.0025,0.0,0.0,0.0,0.0025,0.02,-0.02,0.02,0.02,0.0,0.0,0.0,0.02,0.0,0.0,0.0,0.02,0.1179784375,0.501408359375,-8.65494414062,0.04,0.0,0.0,0.0,0.04,0.0,0.0,0.0,0.04
1579082070573250799,18293,1579082070574973106,base_imu_link,0.927737512452,0.372130939117,0.0153532988776,0.0242063701337,0.0025,0.0,0.0,0.0,0.0025,0.0,0.0,0.0,0.0025,0.02,-0.02,0.02,0.02,0.0,0.0,0.0,0.02,0.0,0.0,0.0,0.02,0.094995625,0.560397578125,-8.67179820312,0.04,0.0,0.0,0.0,0.04,0.0,0.0,0.0,0.04
1579082070595537963,18294,1579082070594901084,base_imu_link,0.927666678382,0.372286345713,0.0155359333682,0.0244140408378,0.0025,0.0,0.0,0.0,0.0025,0.0,0.0,0.0,0.0025,0.02,-0.02,0.02,0.02,0.0,0.0,0.0,0.02,0.0,0.0,0.0,0.02,0.1087853125,0.5286046875,-8.64192054687,0.04,0.0,0.0,0.0,0.04,0.0,0.0,0.0,0.04
1579082070613711271,18295,1579082070614310979,base_imu_link,0.927629911791,0.37236458091,0.0156030539529,0.0245745873144,0.0025,0.0,0.0,0.0,0.0025,0.0,0.0,0.0,0.0025,0.02,-0.02,0.02,0.02,0.0,0.0,0.0,0.02,0.0,0.0,0.0,0.02,0.067799296875,0.4290125,-8.75721765625,0.04,0.0,0.0,0.0,0.04,0.0,0.0,0.0,0.04
1579082070630329453,18296,1579082070632695913,base_imu_link,0.927668310751,0.372290168126,0.0154225005789,0.0243655991431,0.0025,0.0,0.0,0.0,0.0025,0.0,0.0,0.0,0.0025,0.02,-0.02,0.02,0.02,0.0,0.0,0.0,0.02,0.0,0.0,0.0,0.02,0.086185546875,0.53320125,-8.57373820313,0.04,0.0,0.0,0.0,0.04,0.0,0.0,0.0,0.04
1579082070651181136,18297,1579082070652662992,base_imu_link,0.927664044022,0.372287470721,0.0154874772357,0.024527507435,0.0025,0.0,0.0,0.0,0.0025,0.0,0.0,0.0,0.0025,0.02,-0.02,0.02,0.02,0.0,0.0,0.0,0.02,0.0,0.0,0.0,0.02,0.168157578125,0.319844140625,-8.40289929687,0.04,0.0,0.0,0.0,0.04,0.0,0.0,0.0,0.04
1579082070672422596,18298,1579082070672614097,base_imu_link,0.927650317575,0.372369426737,0.0155534231946,0.0237484601746,0.0025,0.0,0.0,0.0,0.0025,0.0,0.0,0.0,0.0025,0.02,-0.02,0.02,0.02,0.0,0.0,0.0,0.02,0.0,0.0,0.0,0.02,0.1087853125,0.49259828125,-8.58637875,0.04,0.0,0.0,0.0,0.04,0.0,0.0,0.0,0.04
1579082070693934953,18299,1579082070692663908,base_imu_link,0.927648241599,0.372368068027,0.015585918498,0.0238294128459,0.0025,0.0,0.0,0.0,0.0025,0.0,0.0,0.0,0.0025,0.02,-0.02,0.02,0.02,0.0,0.0,0.0,0.02,0.0,0.0,0.0,0.02,0.02681328125,0.46961546875,-8.705889375,0.04,0.0,0.0,0.0,0.04,0.0,0.0,0.0,0.04
1579082070710858828,18300,1579082070712616920,base_imu_link,0.927614342616,0.372456334193,0.0153451786174,0.0239256345019,0.0025,0.0,0.0,0.0,0.0025,0.0,0.0,0.0,0.0025,0.02,-0.02,0.02,0.02,0.0,0.0,0.0,0.02,0.0,0.0,0.0,0.02,0.21374015625,0.447015703125,-8.58216523437,0.04,0.0,0.0,0.0,0.04,0.0,0.0,0.0,0.04
1579082070730744813,18301,1579082070732615947,base_imu_link,0.92762077427,0.372446871538,0.0156848729051,0.0236010971293,0.0025,0.0,0.0,0.0,0.0025,0.0,0.0,0.0,0.0025,0.02,-0.02,0.02,0.02,0.0,0.0,0.0,0.02,0.0,0.0,0.0,0.02,0.00383046875,0.48800171875,-8.60361585937,0.04,0.0,0.0,0.0,0.04,0.0,0.0,0.0,0.04
1579082070752483272,18302,1579082070754745960,base_imu_link,0.927651471858,0.372375633943,0.0153590418116,0.0237325481214,0.0025,0.0,0.0,0.0,0.0025,0.0,0.0,0.0,0.0025,0.03,-0.02,0.03,0.02,0.0,0.0,0.0,0.02,0.0,0.0,0.0,0.02,-0.00536265625,0.59678703125,-8.71469945312,0.04,0.0,0.0,0.0,0.04,0.0,0.0,0.0,0.04
1579082070772410936,18303,1579082070774735927,base_imu_link,0.927606047208,0.372462102458,0.0151189287452,0.0242985886415,0.0025,0.0,0.0,0.0,0.0025,0.0,0.0,0.0,0.0025,0.02,-0.02,0.02,0.02,0.0,0.0,0.0,0.02,0.0,0.0,0.0,0.02,0.181947265625,0.46961546875,-8.63349351562,0.04,0.0,0.0,0.0,0.04,0.0,0.0,0.0,0.04
1579082070791809322,18304,1579082070792603015,base_imu_link,0.927673520059,0.372287943481,0.0155194134292,0.024138664578,0.0025,0.0,0.0,0.0,0.0025,0.0,0.0,0.0,0.0025,0.02,-0.02,0.02,0.02,0.0,0.0,0.0,0.02,0.0,0.0,0.0,0.02,0.158964453125,0.515198046875,-8.72734,0.04,0.0,0.0,0.0,0.04,0.0,0.0,0.0,0.04
1579082070811530099,18305,1579082070812992095,base_imu_link,0.927672821815,0.372279179221,0.0157947350539,0.0241220797208,0.0025,0.0,0.0,0.0,0.0025,0.0,0.0,0.0,0.0025,0.02,-0.02,0.02,0.02,0.0,0.0,0.0,0.02,0.0,0.0,0.0,0.02,0.063202734375,0.515198046875,-8.62928,0.04,0.0,0.0,0.0,0.04,0.0,0.0,0.0,0.04
1579082070830564075,18306,1579082070832532882,base_imu_link,0.927669773434,0.372282755427,0.0156653340773,0.0242680608246,0.0025,0.0,0.0,0.0,0.0025,0.0,0.0,0.0,0.0025,0.02,-0.02,0.02,0.02,0.0,0.0,0.0,0.02,0.0,0.0,0.0,0.02,0.1271715625,0.5377978125,-8.62928,0.04,0.0,0.0,0.0,0.04,0.0,0.0,0.0,0.04
1579082070852378161,18307,1579082070854872941,base_imu_link,0.927731434999,0.372113117398,0.0158879442459,0.0243677164087,0.0025,0.0,0.0,0.0,0.0025,0.0,0.0,0.0,0.0025,0.03,-0.02,0.02,0.02,0.0,0.0,0.0,0.02,0.0,0.0,0.0,0.02,0.181947265625,0.4060296875,-8.68022523437,0.04,0.0,0.0,0.0,0.04,0.0,0.0,0.0,0.04
1579082070877691229,18308,1579082070877943992,base_imu_link,0.927676695455,0.372270666693,0.0160860245933,0.0239110694421,0.0025,0.0,0.0,0.0,0.0025,0.0,0.0,0.0,0.0025,0.02,-0.02,0.02,0.02,0.0,0.0,0.0,0.02,0.0,0.0,0.0,0.02,0.086185546875,0.460805390625,-8.69746234375,0.04,0.0,0.0,0.0,0.04,0.0,0.0,0.0,0.04
1579082070891880635,18309,1579082070892560958,base_imu_link,0.927645858346,0.372355492391,0.015974675829,0.0238612345017,0.0025,0.0,0.0,0.0,0.0025,0.0,0.0,0.0,0.0025,0.02,-0.02,0.02,0.02,0.0,0.0,0.0,0.02,0.0,0.0,0.0,0.02,0.00383046875,0.4244159375,-8.58637875,0.04,0.0,0.0,0.0,0.04,0.0,0.0,0.0,0.04
1579082070911110453,18310,1579082070913033962,base_imu_link,0.927649860955,0.372371860884,0.0154724804849,0.0237809806246,0.0025,0.0,0.0,0.0,0.0025,0.0,0.0,0.0,0.0025,0.02,-0.02,0.02,0.02,0.0,0.0,0.0,0.02,0.0,0.0,0.0,0.02,0.044816484375,0.501408359375,-8.65915765625,0.04,0.0,0.0,0.0,0.04,0.0,0.0,0.0,0.04
1579082070957950701,18311,1579082070932511091,base_imu_link,0.92764684203,0.372375383152,0.0153430906535,0.0239269735303,0.0025,0.0,0.0,0.0,0.0025,0.0,0.0,0.0,0.0025,0.02,-0.02,0.02,0.02,0.0,0.0,0.0,0.02,0.0,0.0,0.0,0.02,0.154367890625,0.447015703125,-8.6461340625,0.04,0.0,0.0,0.0,0.04,0.0,0.0,0.0,0.04
1579082070963745070,18312,1579082070952393054,base_imu_link,0.927652386487,0.372370782611,0.0155209277727,0.0236675073226,0.0025,0.0,0.0,0.0,0.0025,0.0,0.0,0.0,0.0025,0.03,-0.02,0.02,0.02,0.0,0.0,0.0,0.02,0.0,0.0,0.0,0.02,0.0995921875,0.46961546875,-8.71891296875,0.04,0.0,0.0,0.0,0.04,0.0,0.0,0.0,0.04
1579082070972332953,18313,1579082070972480058,base_imu_link,0.927589443008,0.372534036222,0.0154925486271,0.0235838506897,0.0025,0.0,0.0,0.0,0.0025,0.0,0.0,0.0,0.0025,0.02,-0.02,0.02,0.02,0.0,0.0,0.0,0.02,0.0,0.0,0.0,0.02,0.18616078125,0.519794609375,-8.68022523437,0.04,0.0,0.0,0.0,0.04,0.0,0.0,0.0,0.04
1579082070992030310,18314,1579082070992916107,base_imu_link,0.927587070263,0.372521561948,0.0158813147852,0.0236156051163,0.0025,0.0,0.0,0.0,0.0025,0.0,0.0,0.0,0.0025,0.02,-0.02,0.02,0.02,0.0,0.0,0.0,0.02,0.0,0.0,0.0,0.02,0.072395859375,0.519794609375,-8.69746234375,0.04,0.0,0.0,0.0,0.04,0.0,0.0,0.0,0.04
1579082071011460391,18315,1579082071012334108,base_imu_link,0.927547906595,0.372600803312,0.0158999890656,0.0238895937716,0.0025,0.0,0.0,0.0,0.0025,0.0,0.0,0.0,0.0025,0.02,-0.02,0.02,0.02,0.0,0.0,0.0,0.02,0.0,0.0,0.0,0.02,0.094995625,0.447015703125,-8.65494414062,0.04,0.0,0.0,0.0,0.04,0.0,0.0,0.0,0.04
1579082071030010241,18316,1579082071032392024,base_imu_link,0.927584135559,0.372525076744,0.0157519505606,0.0237616226097,0.0025,0.0,0.0,0.0,0.0025,0.0,0.0,0.0,0.0025,0.02,-0.02,0.02,0.02,0.0,0.0,0.0,0.02,0.0,0.0,0.0,0.02,0.149771328125,0.5377978125,-8.47989171875,0.04,0.0,0.0,0.0,0.04,0.0,0.0,0.0,0.04
1579082071050402195,18317,1579082071052252054,base_imu_link,0.927613790695,0.372433973866,0.0160576966829,0.0238273120537,0.0025,0.0,0.0,0.0,0.0025,0.0,0.0,0.0,0.0025,0.03,-0.02,0.02,0.02,0.0,0.0,0.0,0.02,0.0,0.0,0.0,0.02,0.1271715625,0.47880859375,-8.62085296875,0.04,0.0,0.0,0.0,0.04,0.0,0.0,0.0,0.04
1579082071069936810,18318,1579082071072345972,base_imu_link,0.927583782179,0.372513856869,0.0161082037098,0.0237124282513,0.0025,0.0,0.0,0.0,0.0025,0.0,0.0,0.0,0.0025,0.02,-0.02,0.02,0.02,0.0,0.0,0.0,0.02,0.0,0.0,0.0,0.02,0.072395859375,0.506004921875,-8.61625640625,0.04,0.0,0.0,0.0,0.04,0.0,0.0,0.0,0.04
1579082071089442313,18319,1579082071092315912,base_imu_link,0.927579203433,0.372513519124,0.0160922839453,0.0239068573114,0.0025,0.0,0.0,0.0,0.0025,0.0,0.0,0.0,0.0025,0.02,-0.02,0.02,0.02,0.0,0.0,0.0,0.02,0.0,0.0,0.0,0.02,0.00842703125,0.46961546875,-8.72734,0.04,0.0,0.0,0.0,0.04,0.0,0.0,0.0,0.04
1579082071110164263,18320,1579082071112212896,base_imu_link,0.927611569915,0.372446292898,0.0156530023262,0.0239899517525,0.0025,0.0,0.0,0.0,0.0025,0.0,0.0,0.0,0.0025,0.02,-0.02,0.02,0.02,0.0,0.0,0.0,0.02,0.0,0.0,0.0,0.02,0.1179784375,0.4152228125,-8.62928,0.04,0.0,0.0,0.0,0.04,0.0,0.0,0.0,0.04
1579082071131560800,18321,1579082071132263898,base_imu_link,0.927618268449,0.372447941137,0.0156364353324,0.0237145750978,0.0025,0.0,0.0,0.0,0.0025,0.0,0.0,0.0,0.0025,0.02,-0.02,0.02,0.02,0.0,0.0,0.0,0.02,0.0,0.0,0.0,0.02,0.067799296875,0.515198046875,-8.58637875,0.04,0.0,0.0,0.0,0.04,0.0,0.0,0.0,0.04
1579082071153939383,18322,1579082071155757904,base_imu_link,0.927648241599,0.372368068027,0.015585918498,0.0238294128459,0.0025,0.0,0.0,0.0,0.0025,0.0,0.0,0.0,0.0025,0.03,-0.02,0.03,0.02,0.0,0.0,0.0,0.02,0.0,0.0,0.0,0.02,0.0995921875,0.460805390625,-8.56531117187,0.04,0.0,0.0,0.0,0.04,0.0,0.0,0.0,0.04
1579082071172461381,18323,1579082071172528982,base_imu_link,0.927650317575,0.372369426737,0.0155534231946,0.0237484601746,0.0025,0.0,0.0,0.0,0.0025,0.0,0.0,0.0,0.0025,0.02,-0.02,0.02,0.02,0.0,0.0,0.0,0.02,0.0,0.0,0.0,0.02,0.113381875,0.564994140625,-8.68482179687,0.04,0.0,0.0,0.0,0.04,0.0,0.0,0.0,0.04
1579082071194851550,18324,1579082071196676015,base_imu_link,0.927642432191,0.372361509645,0.0157643454306,0.0240397492963,0.0025,0.0,0.0,0.0,0.0025,0.0,0.0,0.0,0.0025,0.02,-0.02,0.02,0.02,0.0,0.0,0.0,0.02,0.0,0.0,0.0,0.02,0.03600640625,0.442419140625,-8.57795171875,0.04,0.0,0.0,0.0,0.04,0.0,0.0,0.0,0.04
1579082071215024466,18325,1579082071216339111,base_imu_link,0.927610632153,0.372451200656,0.0154911237448,0.0240550063549,0.0025,0.0,0.0,0.0,0.0025,0.0,0.0,0.0,0.0025,0.02,-0.02,0.02,0.02,0.0,0.0,0.0,0.02,0.0,0.0,0.0,0.02,0.081588984375,0.4336090625,-8.59940234375,0.04,0.0,0.0,0.0,0.04,0.0,0.0,0.0,0.04
1579082071230319278,18326,1579082071232235908,base_imu_link,0.927648926521,0.372376720672,0.0153105947126,0.0238460209808,0.0025,0.0,0.0,0.0,0.0025,0.0,0.0,0.0,0.0025,0.02,-0.02,0.03,0.02,0.0,0.0,0.0,0.02,0.0,0.0,0.0,0.02,0.0903990625,0.397219609375,-8.59940234375,0.04,0.0,0.0,0.0,0.04,0.0,0.0,0.0,0.04
1579082071249799470,18327,1579082071252167940,base_imu_link,0.927657193836,0.372382042391,0.0151806097858,0.0235222089732,0.0025,0.0,0.0,0.0,0.0025,0.0,0.0,0.0,0.0025,0.03,-0.02,0.02,0.02,0.0,0.0,0.0,0.02,0.0,0.0,0.0,0.02,0.02221671875,0.551204453125,-8.55650109375,0.04,0.0,0.0,0.0,0.04,0.0,0.0,0.0,0.04
1579082071270716560,18328,1579082071272219896,base_imu_link,0.92761497172,0.372464940179,0.0150698545955,0.0239422651509,0.0025,0.0,0.0,0.0,0.0025,0.0,0.0,0.0,0.0025,0.02,-0.02,0.02,0.02,0.0,0.0,0.0,0.02,0.0,0.0,0.0,0.02,0.168157578125,0.437822578125,-8.59518882812,0.04,0.0,0.0,0.0,0.04,0.0,0.0,0.0,0.04
1579082071291496871,18329,1579082071292144060,base_imu_link,0.927621039828,0.372457924479,0.0153286097815,0.0236502575851,0.0025,0.0,0.0,0.0,0.0025,0.0,0.0,0.0,0.0025,0.02,-0.02,0.02,0.02,0.0,0.0,0.0,0.02,0.0,0.0,0.0,0.02,0.054009609375,0.451612265625,-8.68482179687,0.04,0.0,0.0,0.0,0.04,0.0,0.0,0.0,0.04
1579082071310334983,18330,1579082071312060117,base_imu_link,0.927622168214,0.372464072387,0.0151342250427,0.0236343616549,0.0025,0.0,0.0,0.0,0.0025,0.0,0.0,0.0,0.0025,0.02,-0.02,0.02,0.02,0.0,0.0,0.0,0.02,0.0,0.0,0.0,0.02,0.140578203125,0.36083015625,-8.57795171875,0.04,0.0,0.0,0.0,0.04,0.0,0.0,0.0,0.04
1579082071330148113,18331,1579082071332051992,base_imu_link,0.927665796166,0.37238494677,0.0151315676297,0.0231658736913,0.0025,0.0,0.0,0.0,0.0025,0.0,0.0,0.0,0.0025,0.02,-0.02,0.02,0.02,0.0,0.0,0.0,0.02,0.0,0.0,0.0,0.02,0.18616078125,0.53320125,-8.53543351562,0.04,0.0,0.0,0.0,0.04,0.0,0.0,0.0,0.04
1579082071350421995,18332,1579082071352067947,base_imu_link,0.927596449964,0.37253327338,0.0155568947362,0.0232759374571,0.0025,0.0,0.0,0.0,0.0025,0.0,0.0,0.0,0.0025,0.03,-0.02,0.02,0.02,0.0,0.0,0.0,0.02,0.0,0.0,0.0,0.02,0.1363646875,0.4152228125,-8.59518882812,0.04,0.0,0.0,0.0,0.04,0.0,0.0,0.0,0.04
1579082071372282056,18333,1579082071372090101,base_imu_link,0.927570817886,0.372613505658,0.015623246103,0.0229666581769,0.0025,0.0,0.0,0.0,0.0025,0.0,0.0,0.0,0.0025,0.02,-0.02,0.02,0.02,0.0,0.0,0.0,0.02,0.0,0.0,0.0,0.02,0.094995625,0.46961546875,-8.69746234375,0.04,0.0,0.0,0.0,0.04,0.0,0.0,0.0,0.04
1579082071390428992,18334,1579082071392035007,base_imu_link,0.927570817886,0.372613505658,0.015623246103,0.0229666581769,0.0025,0.0,0.0,0.0,0.0025,0.0,0.0,0.0,0.0025,0.02,-0.02,0.02,0.02,0.0,0.0,0.0,0.02,0.0,0.0,0.0,0.02,0.0995921875,0.49259828125,-8.65915765625,0.04,0.0,0.0,0.0,0.04,0.0,0.0,0.0,0.04
1579082071410615207,18335,1579082071412031888,base_imu_link,0.92766390147,0.372370327135,0.0156012801106,0.0231651772554,0.0025,0.0,0.0,0.0,0.0025,0.0,0.0,0.0,0.0025,0.02,-0.02,0.02,0.02,0.0,0.0,0.0,0.02,0.0,0.0,0.0,0.02,0.02681328125,0.496811796875,-8.59940234375,0.04,0.0,0.0,0.0,0.04,0.0,0.0,0.0,0.04
1579082071429553194,18336,1579082071431981086,base_imu_link,0.927693083909,0.372295222675,0.0153889077257,0.0233450371425,0.0025,0.0,0.0,0.0,0.0025,0.0,0.0,0.0,0.0025,0.02,-0.02,0.02,0.02,0.0,0.0,0.0,0.02,0.0,0.0,0.0,0.02,-0.018769296875,0.456208828125,-8.56531117187,0.04,0.0,0.0,0.0,0.04,0.0,0.0,0.0,0.04
1579082071449464725,18337,1579082071451955080,base_imu_link,0.927790288391,0.372065612683,0.0149455499749,0.0234305604257,0.0025,0.0,0.0,0.0,0.0025,0.0,0.0,0.0,0.0025,0.02,-0.02,0.02,0.02,0.0,0.0,0.0,0.02,0.0,0.0,0.0,0.02,0.177350703125,0.60138359375,-8.77445476562,0.04,0.0,0.0,0.0,0.04,0.0,0.0,0.0,0.04
1579082071471174407,18338,1579082071472019910,base_imu_link,0.927846779692,0.371887441257,0.0154275734295,0.0237081089203,0.0025,0.0,0.0,0.0,0.0025,0.0,0.0,0.0,0.0025,0.02,-0.02,0.02,0.02,0.0,0.0,0.0,0.02,0.0,0.0,0.0,0.02,0.177350703125,0.4152228125,-8.57373820313,0.04,0.0,0.0,0.0,0.04,0.0,0.0,0.0,0.04
1579082071491770177,18339,1579082071491967916,base_imu_link,0.927820192157,0.371961427459,0.015688550721,0.0234148859506,0.0025,0.0,0.0,0.0,0.0025,0.0,0.0,0.0,0.0025,0.02,-0.02,0.02,0.02,0.0,0.0,0.0,0.02,0.0,0.0,0.0,0.02,-0.082738125,0.501408359375,-8.59518882812,0.04,0.0,0.0,0.0,0.04,0.0,0.0,0.0,0.04
1579082071510549411,18340,1579082071511877059,base_imu_link,0.927814032701,0.371981813413,0.0149923935443,0.023788218692,0.0025,0.0,0.0,0.0,0.0025,0.0,0.0,0.0,0.0025,0.02,-0.02,0.02,0.02,0.0,0.0,0.0,0.02,0.0,0.0,0.0,0.02,0.076992421875,0.36542671875,-8.73576703125,0.04,0.0,0.0,0.0,0.04,0.0,0.0,0.0,0.04
1579082071529185663,18341,1579082071531876087,base_imu_link,0.92779185831,0.372069286199,0.0148321249657,0.0233820869394,0.0025,0.0,0.0,0.0,0.0025,0.0,0.0,0.0,0.0025,0.02,-0.02,0.02,0.02,0.0,0.0,0.0,0.02,0.0,0.0,0.0,0.02,0.181947265625,0.46961546875,-8.55650109375,0.04,0.0,0.0,0.0,0.04,0.0,0.0,0.0,0.04
1579082071550336618,18342,1579082071551920890,base_imu_link,0.927795726515,0.37206110764,0.0151234802926,0.0231711541934,0.0025,0.0,0.0,0.0,0.0025,0.0,0.0,0.0,0.0025,0.03,-0.02,0.02,0.02,0.0,0.0,0.0,0.02,0.0,0.0,0.0,0.02,0.0995921875,0.515198046875,-8.56531117187,0.04,0.0,0.0,0.0,0.04,0.0,0.0,0.0,0.04
1579082071570731158,18343,1579082071572437047,base_imu_link,0.927759196496,0.372139426108,0.0151904531133,0.0233317592135,0.0025,0.0,0.0,0.0,0.0025,0.0,0.0,0.0,0.0025,0.02,-0.02,0.02,0.02,0.0,0.0,0.0,0.02,0.0,0.0,0.0,0.02,0.145174765625,0.53320125,-8.59940234375,0.04,0.0,0.0,0.0,0.04,0.0,0.0,0.0,0.04
1579082071591734731,18344,1579082071591988086,base_imu_link,0.927689436133,0.372290115303,0.0155348313294,0.0234744360902,0.0025,0.0,0.0,0.0,0.0025,0.0,0.0,0.0,0.0025,0.02,-0.02,0.02,0.02,0.0,0.0,0.0,0.02,0.0,0.0,0.0,0.02,0.1087853125,0.58759390625,-8.71891296875,0.04,0.0,0.0,0.0,0.04,0.0,0.0,0.0,0.04
1579082071613137179,18345,1579082071615097045,base_imu_link,0.927677017782,0.372281930252,0.0157297598395,0.023960169903,0.0025,0.0,0.0,0.0,0.0025,0.0,0.0,0.0,0.0025,0.02,-0.02,0.02,0.02,0.0,0.0,0.0,0.02,0.0,0.0,0.0,0.02,0.122575,0.35163703125,-8.8085459375,0.04,0.0,0.0,0.0,0.04,0.0,0.0,0.0,0.04
1579082071632274660,18346,1579082071633405923,base_imu_link,0.927724396878,0.372208100144,0.0155812502972,0.0233623257348,0.0025,0.0,0.0,0.0,0.0025,0.0,0.0,0.0,0.0025,0.02,-0.02,0.02,0.02,0.0,0.0,0.0,0.02,0.0,0.0,0.0,0.02,0.054009609375,0.460805390625,-8.6461340625,0.04,0.0,0.0,0.0,0.04,0.0,0.0,0.0,0.04
1579082071652772911,18347,1579082071654071092,base_imu_link,0.927628092006,0.372457129991,0.0153929819689,0.0233423509159,0.0025,0.0,0.0,0.0,0.0025,0.0,0.0,0.0,0.0025,0.02,-0.02,0.02,0.02,0.0,0.0,0.0,0.02,0.0,0.0,0.0,0.02,0.140578203125,0.437822578125,-8.67179820312,0.04,0.0,0.0,0.0,0.04,0.0,0.0,0.0,0.04
1579082071671605434,18348,1579082071671940088,base_imu_link,0.927633004619,0.372455033064,0.0154898580381,0.0231153928147,0.0025,0.0,0.0,0.0,0.0025,0.0,0.0,0.0,0.0025,0.02,-0.02,0.02,0.02,0.0,0.0,0.0,0.02,0.0,0.0,0.0,0.02,0.19075734375,0.447015703125,-8.650730625,0.04,0.0,0.0,0.0,0.04,0.0,0.0,0.0,0.04
1579082071691117227,18349,1579082071691817998,base_imu_link,0.927669510673,0.372363471461,0.0158600639539,0.0228731821086,0.0025,0.0,0.0,0.0,0.0025,0.0,0.0,0.0,0.0025,0.02,-0.02,0.02,0.02,0.0,0.0,0.0,0.02,0.0,0.0,0.0,0.02,0.054009609375,0.4060296875,-8.76985820312,0.04,0.0,0.0,0.0,0.04,0.0,0.0,0.0,0.04
1579082071709577886,18350,1579082071711819887,base_imu_link,0.927706810316,0.372293774967,0.0155177625258,0.022729238026,0.0025,0.0,0.0,0.0,0.0025,0.0,0.0,0.0,0.0025,0.02,-0.02,0.02,0.02,0.0,0.0,0.0,0.02,0.0,0.0,0.0,0.02,0.081588984375,0.4290125,-8.69324882812,0.04,0.0,0.0,0.0,0.04,0.0,0.0,0.0,0.04
1579082071729801178,18351,1579082071731740951,base_imu_link,0.927775336197,0.372136909679,0.0153678923263,0.0226025194177,0.0025,0.0,0.0,0.0,0.0025,0.0,0.0,0.0,0.0025,0.02,-0.02,0.02,0.02,0.0,0.0,0.0,0.02,0.0,0.0,0.0,0.02,0.154367890625,0.569590703125,-8.49253226562,0.04,0.0,0.0,0.0,0.04,0.0,0.0,0.0,0.04
1579082071750683076,18352,1579082071751773118,base_imu_link,0.927766188671,0.372125387738,0.0156921709601,0.0229423348951,0.0025,0.0,0.0,0.0,0.0025,0.0,0.0,0.0,0.0025,0.03,-0.02,0.02,0.02,0.0,0.0,0.0,0.02,0.0,0.0,0.0,0.02,0.067799296875,0.4152228125,-8.6675846875,0.04,0.0,0.0,0.0,0.04,0.0,0.0,0.0,0.04
1579082071772666634,18353,1579082071771745920,base_imu_link,0.927771773707,0.372131853914,0.0155137952891,0.0227319460403,0.0025,0.0,0.0,0.0,0.0025,0.0,0.0,0.0,0.0025,0.02,-0.02,0.02,0.02,0.0,0.0,0.0,0.02,0.0,0.0,0.0,0.02,0.081588984375,0.5469909375,-8.650730625,0.04,0.0,0.0,0.0,0.04,0.0,0.0,0.0,0.04
1579082071790058863,18354,1579082071791789054,base_imu_link,0.927828308968,0.371966881135,0.0155587107358,0.0230910141863,0.0025,0.0,0.0,0.0,0.0025,0.0,0.0,0.0,0.0025,0.02,-0.02,0.02,0.02,0.0,0.0,0.0,0.02,0.0,0.0,0.0,0.02,0.00842703125,0.460805390625,-8.69324882812,0.04,0.0,0.0,0.0,0.04,0.0,0.0,0.0,0.04
1579082071812225999,18355,1579082071812824010,base_imu_link,0.92789151651,0.371814495743,0.0152308249299,0.0232236154835,0.0025,0.0,0.0,0.0,0.0025,0.0,0.0,0.0,0.0025,0.02,-0.02,0.02,0.02,0.0,0.0,0.0,0.02,0.0,0.0,0.0,0.02,0.0995921875,0.437822578125,-8.56531117187,0.04,0.0,0.0,0.0,0.04,0.0,0.0,0.0,0.04
1579082071829373728,18356,1579082071831751108,base_imu_link,0.92795841959,0.371653869832,0.0151943385518,0.0231452938497,0.0025,0.0,0.0,0.0,0.0025,0.0,0.0,0.0,0.0025,0.02,-0.02,0.02,0.02,0.0,0.0,0.0,0.02,0.0,0.0,0.0,0.02,0.1179784375,0.401816171875,-8.59518882812,0.04,0.0,0.0,0.0,0.04,0.0,0.0,0.0,0.04
1579082071848964215,18357,1579082071851731061,base_imu_link,0.928031715221,0.371494834869,0.0151415990389,0.02279155958,0.0025,0.0,0.0,0.0,0.0025,0.0,0.0,0.0,0.0025,0.03,-0.02,0.02,0.02,0.0,0.0,0.0,0.02,0.0,0.0,0.0,0.02,0.145174765625,0.4336090625,-8.73155351562,0.04,0.0,0.0,0.0,0.04,0.0,0.0,0.0,0.04
1579082071871518165,18358,1579082071871736049,base_imu_link,0.928099337737,0.371329482643,0.0152671801442,0.0226483514402,0.0025,0.0,0.0,0.0,0.0025,0.0,0.0,0.0,0.0025,0.02,-0.02,0.02,0.02,0.0,0.0,0.0,0.02,0.0,0.0,0.0,0.02,0.181947265625,0.4336090625,-8.69324882812,0.04,0.0,0.0,0.0,0.04,0.0,0.0,0.0,0.04
1579082071890437406,18359,1579082071891685962,base_imu_link,0.92807238734,0.371403767081,0.0155282502087,0.0223552924357,0.0025,0.0,0.0,0.0,0.0025,0.0,0.0,0.0,0.0025,0.02,-0.02,0.02,0.02,0.0,0.0,0.0,0.02,0.0,0.0,0.0,0.02,-0.00076609375,0.501408359375,-8.58216523437,0.04,0.0,0.0,0.0,0.04,0.0,0.0,0.0,0.04
1579082071910594304,18360,1579082071911662101,base_imu_link,0.928032128463,0.371492482252,0.0152225753185,0.0227591162129,0.0025,0.0,0.0,0.0,0.0025,0.0,0.0,0.0,0.0025,0.02,-0.02,0.02,0.02,0.0,0.0,0.0,0.02,0.0,0.0,0.0,0.02,0.00383046875,0.447015703125,-8.650730625,0.04,0.0,0.0,0.0,0.04,0.0,0.0,0.0,0.04
1579082071929483157,18361,1579082071932013034,base_imu_link,0.928032426989,0.371503174484,0.0148662497996,0.0228079026185,0.0025,0.0,0.0,0.0,0.0025,0.0,0.0,0.0,0.0025,0.02,-0.02,0.02,0.02,0.0,0.0,0.0,0.02,0.0,0.0,0.0,0.02,0.0903990625,0.496811796875,-8.62928,0.04,0.0,0.0,0.0,0.04,0.0,0.0,0.0,0.04
1579082071949631186,18362,1579082071951792001,base_imu_link,0.928095258265,0.371339898221,0.0148946744193,0.0228914885984,0.0025,0.0,0.0,0.0,0.0025,0.0,0.0,0.0,0.0025,0.02,-0.02,0.02,0.02,0.0,0.0,0.0,0.02,0.0,0.0,0.0,0.02,0.1363646875,0.442419140625,-8.57795171875,0.04,0.0,0.0,0.0,0.04,0.0,0.0,0.0,0.04
1579082071970353081,18363,1579082071971589088,base_imu_link,0.928098107732,0.371336519508,0.0150242337075,0.0227456392482,0.0025,0.0,0.0,0.0,0.0025,0.0,0.0,0.0,0.0025,0.02,-0.02,0.02,0.02,0.0,0.0,0.0,0.02,0.0,0.0,0.0,0.02,0.131768125,0.437822578125,-8.650730625,0.04,0.0,0.0,0.0,0.04,0.0,0.0,0.0,0.04
1579082071991191667,18364,1579082071991559982,base_imu_link,0.928098934803,0.371331831093,0.015186198114,0.0226807808824,0.0025,0.0,0.0,0.0,0.0025,0.0,0.0,0.0,0.0025,0.02,-0.02,0.02,0.02,0.0,0.0,0.0,0.02,0.0,0.0,0.0,0.02,0.063202734375,0.682972578125,-8.72734,0.04,0.0,0.0,0.0,0.04,0.0,0.0,0.0,0.04
1579082072009870386,18365,1579082072011554002,base_imu_link,0.928110305561,0.371242275508,0.0153462245226,0.023556888173,0.0025,0.0,0.0,0.0,0.0025,0.0,0.0,0.0,0.0025,0.02,-0.02,0.02,0.02,0.0,0.0,0.0,0.02,0.0,0.0,0.0,0.02,0.0995921875,0.4336090625,-8.62085296875,0.04,0.0,0.0,0.0,0.04,0.0,0.0,0.0,0.04
1579082072036361217,18366,1579082072034765005,base_imu_link,0.928049594275,0.371406929142,0.0152855132368,0.0233922345395,0.0025,0.0,0.0,0.0,0.0025,0.0,0.0,0.0,0.0025,0.02,-0.02,0.03,0.02,0.0,0.0,0.0,0.02,0.0,0.0,0.0,0.02,0.131768125,0.53320125,-8.57795171875,0.04,0.0,0.0,0.0,0.04,0.0,0.0,0.0,0.04
1579082072051414549,18367,1579082072053844928,base_imu_link,0.928046381516,0.371399425983,0.0155122903344,0.0234893376399,0.0025,0.0,0.0,0.0,0.0025,0.0,0.0,0.0,0.0025,0.03,-0.02,0.02,0.02,0.0,0.0,0.0,0.02,0.0,0.0,0.0,0.02,0.02681328125,0.510601484375,-8.55650109375,0.04,0.0,0.0,0.0,0.04,0.0,0.0,0.0,0.04
1579082072071123472,18368,1579082072071533918,base_imu_link,0.92800849935,0.371484981027,0.0153362531279,0.0237472808065,0.0025,0.0,0.0,0.0,0.0025,0.0,0.0,0.0,0.0025,0.02,-0.02,0.02,0.02,0.0,0.0,0.0,0.02,0.0,0.0,0.0,0.02,0.149771328125,0.48340515625,-8.68022523437,0.04,0.0,0.0,0.0,0.04,0.0,0.0,0.0,0.04
1579082072089593820,18369,1579082072091660976,base_imu_link,0.928040200219,0.371395352147,0.015609521944,0.0237322988067,0.0025,0.0,0.0,0.0,0.0025,0.0,0.0,0.0,0.0025,0.02,-0.02,0.02,0.02,0.0,0.0,0.0,0.02,0.0,0.0,0.0,0.02,0.122575,0.437822578125,-8.56531117187,0.04,0.0,0.0,0.0,0.04,0.0,0.0,0.0,0.04
1579082072109995186,18370,1579082072111515998,base_imu_link,0.928077169277,0.37131465612,0.0156236237698,0.0235392522762,0.0025,0.0,0.0,0.0,0.0025,0.0,0.0,0.0,0.0025,0.02,-0.02,0.02,0.02,0.0,0.0,0.0,0.02,0.0,0.0,0.0,0.02,-0.00536265625,0.442419140625,-8.57373820313,0.04,0.0,0.0,0.0,0.04,0.0,0.0,0.0,0.04
1579082072129052947,18371,1579082072131520986,base_imu_link,0.92810939404,0.371247094031,0.0151842581424,0.0236217309409,0.0025,0.0,0.0,0.0,0.0025,0.0,0.0,0.0,0.0025,0.02,-0.02,0.03,0.02,0.0,0.0,0.0,0.02,0.0,0.0,0.0,0.02,0.086185546875,0.519794609375,-8.54386054687,0.04,0.0,0.0,0.0,0.04,0.0,0.0,0.0,0.04
1579082072150662306,18372,1579082072151832103,base_imu_link,0.928107329121,0.371245767541,0.0152166555051,0.0237027236746,0.0025,0.0,0.0,0.0,0.0025,0.0,0.0,0.0,0.0025,0.03,-0.02,0.02,0.02,0.0,0.0,0.0,0.02,0.0,0.0,0.0,0.02,0.172754140625,0.46961546875,-8.58637875,0.04,0.0,0.0,0.0,0.04,0.0,0.0,0.0,0.04
1579082072173967477,18373,1579082072173681020,base_imu_link,0.928108694288,0.371238514315,0.0154596042685,0.0236054593723,0.0025,0.0,0.0,0.0,0.0025,0.0,0.0,0.0,0.0025,0.02,-0.02,0.02,0.02,0.0,0.0,0.0,0.02,0.0,0.0,0.0,0.02,0.076992421875,0.451612265625,-8.5695246875,0.04,0.0,0.0,0.0,0.04,0.0,0.0,0.0,0.04
1579082072189053435,18374,1579082072191431999,base_imu_link,0.928013528546,0.371482828108,0.0154333656999,0.0235204268803,0.0025,0.0,0.0,0.0,0.0025,0.0,0.0,0.0,0.0025,0.02,-0.02,0.02,0.02,0.0,0.0,0.0,0.02,0.0,0.0,0.0,0.02,0.058606171875,0.496811796875,-8.72312648437,0.04,0.0,0.0,0.0,0.04,0.0,0.0,0.0,0.04
1579082072209247432,18375,1579082072211383104,base_imu_link,0.928010568158,0.371486317953,0.0153038348893,0.0236662966971,0.0025,0.0,0.0,0.0,0.0025,0.0,0.0,0.0,0.0025,0.02,-0.02,0.02,0.02,0.0,0.0,0.0,0.02,0.0,0.0,0.0,0.02,0.1271715625,0.46961546875,-8.58637875,0.04,0.0,0.0,0.0,0.04,0.0,0.0,0.0,0.04
1579082072230324528,18376,1579082072231368064,base_imu_link,0.928043438398,0.371402914676,0.0153827468185,0.0236351965507,0.0025,0.0,0.0,0.0,0.0025,0.0,0.0,0.0,0.0025,0.02,-0.02,0.02,0.02,0.0,0.0,0.0,0.02,0.0,0.0,0.0,0.02,0.1363646875,0.48800171875,-8.69746234375,0.04,0.0,0.0,0.0,0.04,0.0,0.0,0.0,0.04
1579082072249550555,18377,1579082072251347064,base_imu_link,0.928076735213,0.371317082306,0.0155426440314,0.0235716813166,0.0025,0.0,0.0,0.0,0.0025,0.0,0.0,0.0,0.0025,0.03,-0.02,0.02,0.02,0.0,0.0,0.0,0.02,0.0,0.0,0.0,0.02,0.10418875,0.59678703125,-8.72734,0.04,0.0,0.0,0.0,0.04,0.0,0.0,0.0,0.04
1579082072271310863,18378,1579082072271413087,base_imu_link,0.928098761181,0.371229274719,0.0157025677727,0.0239779993272,0.0025,0.0,0.0,0.0,0.0025,0.0,0.0,0.0,0.0025,0.02,-0.02,0.02,0.02,0.0,0.0,0.0,0.02,0.0,0.0,0.0,0.02,0.1271715625,0.388026484375,-8.63349351562,0.04,0.0,0.0,0.0,0.04,0.0,0.0,0.0,0.04
1579082072289044361,18379,1579082072291344881,base_imu_link,0.928140333215,0.371148869814,0.0157328893444,0.0235905592822,0.0025,0.0,0.0,0.0,0.0025,0.0,0.0,0.0,0.0025,0.02,-0.02,0.02,0.02,0.0,0.0,0.0,0.02,0.0,0.0,0.0,0.02,0.149771328125,0.460805390625,-8.61204289063,0.04,0.0,0.0,0.0,0.04,0.0,0.0,0.0,0.04
1579082072310878097,18380,1579082072311355113,base_imu_link,0.928143220285,0.3711453747,0.0158624706326,0.0234447329608,0.0025,0.0,0.0,0.0,0.0025,0.0,0.0,0.0,0.0025,0.02,-0.02,0.02,0.02,0.0,0.0,0.0,0.02,0.0,0.0,0.0,0.02,0.067799296875,0.4290125,-8.61625640625,0.04,0.0,0.0,0.0,0.04,0.0,0.0,0.0,0.04
1579082072329829030,18381,1579082072331326007,base_imu_link,0.928146477402,0.371152975956,0.0156357222594,0.0233475719055,0.0025,0.0,0.0,0.0,0.0025,0.0,0.0,0.0,0.0025,0.02,-0.02,0.02,0.02,0.0,0.0,0.0,0.02,0.0,0.0,0.0,0.02,0.054009609375,0.506004921875,-8.63349351562,0.04,0.0,0.0,0.0,0.04,0.0,0.0,0.0,0.04
1579082072350160810,18382,1579082072351327896,base_imu_link,0.928143581854,0.371156451283,0.0155061403087,0.023493397943,0.0025,0.0,0.0,0.0,0.0025,0.0,0.0,0.0,0.0025,0.02,-0.02,0.02,0.02,0.0,0.0,0.0,0.02,0.0,0.0,0.0,0.02,0.081588984375,0.551204453125,-8.57795171875,0.04,0.0,0.0,0.0,0.04,0.0,0.0,0.0,0.04
1579082072371810018,18383,1579082072371220111,base_imu_link,0.928136953124,0.371154816635,0.0155223232166,0.023768799206,0.0025,0.0,0.0,0.0,0.0025,0.0,0.0,0.0,0.0025,0.02,-0.02,0.02,0.02,0.0,0.0,0.0,0.02,0.0,0.0,0.0,0.02,0.1271715625,0.46501890625,-8.60361585937,0.04,0.0,0.0,0.0,0.04,0.0,0.0,0.0,0.04
1579082072389800191,18384,1579082072391810894,base_imu_link,0.928137838787,0.37114993867,0.0156842932804,0.0237039697266,0.0025,0.0,0.0,0.0,0.0025,0.0,0.0,0.0,0.0025,0.02,-0.02,0.02,0.02,0.0,0.0,0.0,0.02,0.0,0.0,0.0,0.02,0.03140984375,0.456208828125,-8.58216523437,0.04,0.0,0.0,0.0,0.04,0.0,0.0,0.0,0.04
1579082072410565156,18385,1579082072411262989,base_imu_link,0.928138573204,0.371158597476,0.0154089483679,0.0237202183947,0.0025,0.0,0.0,0.0,0.0025,0.0,0.0,0.0,0.0025,0.02,-0.02,0.02,0.02,0.0,0.0,0.0,0.02,0.0,0.0,0.0,0.02,0.181947265625,0.451612265625,-8.509769375,0.04,0.0,0.0,0.0,0.04,0.0,0.0,0.0,0.04
1579082072430747179,18386,1579082072432034015,base_imu_link,0.928207152146,0.370988244297,0.0156963970035,0.023512303565,0.0025,0.0,0.0,0.0,0.0025,0.0,0.0,0.0,0.0025,0.02,-0.02,0.02,0.02,0.0,0.0,0.0,0.02,0.0,0.0,0.0,0.02,0.163561015625,0.501408359375,-8.63349351562,0.04,0.0,0.0,0.0,0.04,0.0,0.0,0.0,0.04
1579082072449116016,18387,1579082072451235055,base_imu_link,0.928205933521,0.370981992179,0.0158907528598,0.023528502465,0.0025,0.0,0.0,0.0,0.0025,0.0,0.0,0.0,0.0025,0.03,-0.02,0.02,0.02,0.0,0.0,0.0,0.02,0.0,0.0,0.0,0.02,0.01302359375,0.560397578125,-8.56531117187,0.04,0.0,0.0,0.0,0.04,0.0,0.0,0.0,0.04
1579082072472066520,18388,1579082072471174955,base_imu_link,0.928165627956,0.371068653804,0.015666000794,0.0238997419371,0.0025,0.0,0.0,0.0,0.0025,0.0,0.0,0.0,0.0025,0.02,-0.02,0.02,0.02,0.0,0.0,0.0,0.02,0.0,0.0,0.0,0.02,0.172754140625,0.48340515625,-8.60361585937,0.04,0.0,0.0,0.0,0.04,0.0,0.0,0.0,0.04
1579082072489614528,18389,1579082072491159915,base_imu_link,0.928165286641,0.371057421773,0.0160223304965,0.0238511078972,0.0025,0.0,0.0,0.0,0.0025,0.0,0.0,0.0,0.0025,0.02,-0.02,0.02,0.02,0.0,0.0,0.0,0.02,0.0,0.0,0.0,0.02,0.049413046875,0.4152228125,-8.57795171875,0.04,0.0,0.0,0.0,0.04,0.0,0.0,0.0,0.04
1579082072508606936,18390,1579082072511250019,base_imu_link,0.928105446311,0.371230932563,0.0156863617822,0.0237026009235,0.0025,0.0,0.0,0.0,0.0025,0.0,0.0,0.0,0.0025,0.02,-0.02,0.02,0.02,0.0,0.0,0.0,0.02,0.0,0.0,0.0,0.02,0.072395859375,0.501408359375,-8.76985820312,0.04,0.0,0.0,0.0,0.04,0.0,0.0,0.0,0.04
1579082072529181726,18391,1579082072531335115,base_imu_link,0.928102931995,0.37123200968,0.0156377758026,0.0238160151712,0.0025,0.0,0.0,0.0,0.0025,0.0,0.0,0.0,0.0025,0.02,-0.02,0.02,0.02,0.0,0.0,0.0,0.02,0.0,0.0,0.0,0.02,0.063202734375,0.4290125,-8.60361585937,0.04,0.0,0.0,0.0,0.04,0.0,0.0,0.0,0.04
1579082072548815260,18392,1579082072551142930,base_imu_link,0.92817302593,0.371078943784,0.0153744956415,0.0236405647022,0.0025,0.0,0.0,0.0,0.0025,0.0,0.0,0.0,0.0025,0.03,-0.02,0.02,0.02,0.0,0.0,0.0,0.02,0.0,0.0,0.0,0.02,0.1271715625,0.49259828125,-8.60361585937,0.04,0.0,0.0,0.0,0.04,0.0,0.0,0.0,0.04
1579082072571099487,18393,1579082072571116924,base_imu_link,0.928171853086,0.371072742437,0.0155688547119,0.0236567479277,0.0025,0.0,0.0,0.0,0.0025,0.0,0.0,0.0,0.0025,0.02,-0.02,0.02,0.02,0.0,0.0,0.0,0.02,0.0,0.0,0.0,0.02,0.1179784375,0.35623359375,-8.69324882812,0.04,0.0,0.0,0.0,0.04,0.0,0.0,0.0,0.04
1579082072590311796,18394,1579082072591104984,base_imu_link,0.928119752241,0.371240445552,0.0154595867975,0.0231356491819,0.0025,0.0,0.0,0.0,0.0025,0.0,0.0,0.0,0.0025,0.02,-0.02,0.02,0.02,0.0,0.0,0.0,0.02,0.0,0.0,0.0,0.02,0.02221671875,0.60598015625,-8.62085296875,0.04,0.0,0.0,0.0,0.04,0.0,0.0,0.0,0.04
1579082072608968407,18395,1579082072611219882,base_imu_link,0.928136039188,0.371159683295,0.01536035268,0.0238336279614,0.0025,0.0,0.0,0.0,0.0025,0.0,0.0,0.0,0.0025,0.02,-0.02,0.02,0.02,0.0,0.0,0.0,0.02,0.0,0.0,0.0,0.02,0.131768125,0.496811796875,-8.59940234375,0.04,0.0,0.0,0.0,0.04,0.0,0.0,0.0,0.04
1579082072628879908,18396,1579082072631200075,base_imu_link,0.928169338958,0.371073819993,0.0155202489385,0.0237701536938,0.0025,0.0,0.0,0.0,0.0025,0.0,0.0,0.0,0.0025,0.02,-0.02,0.02,0.02,0.0,0.0,0.0,0.02,0.0,0.0,0.0,0.02,0.1179784375,0.460805390625,-8.5266234375,0.04,0.0,0.0,0.0,0.04,0.0,0.0,0.0,0.04
1579082072648403112,18397,1579082072651036977,base_imu_link,0.928171853086,0.371072742437,0.0155688547119,0.0236567479277,0.0025,0.0,0.0,0.0,0.0025,0.0,0.0,0.0,0.0025,0.03,-0.02,0.02,0.02,0.0,0.0,0.0,0.02,0.0,0.0,0.0,0.02,-0.00076609375,0.48800171875,-8.61625640625,0.04,0.0,0.0,0.0,0.04,0.0,0.0,0.0,0.04
1579082072671901988,18398,1579082072671061992,base_imu_link,0.92813717898,0.371165863544,0.0151659914014,0.0238174608332,0.0025,0.0,0.0,0.0,0.0025,0.0,0.0,0.0,0.0025,0.02,-0.02,0.02,0.02,0.0,0.0,0.0,0.02,0.0,0.0,0.0,0.02,0.131768125,0.515198046875,-8.65915765625,0.04,0.0,0.0,0.0,0.04,0.0,0.0,0.0,0.04
1579082072688584022,18399,1579082072691070079,base_imu_link,0.928133955778,0.371158341438,0.0153927424141,0.0239146230195,0.0025,0.0,0.0,0.0,0.0025,0.0,0.0,0.0,0.0025,0.02,-0.02,0.02,0.02,0.0,0.0,0.0,0.02,0.0,0.0,0.0,0.02,0.076992421875,0.47880859375,-8.63349351562,0.04,0.0,0.0,0.0,0.04,0.0,0.0,0.0,0.04
1579082072708546805,18400,1579082072711009025,base_imu_link,0.928131865299,0.371156996754,0.015425132031,0.0239956178955,0.0025,0.0,0.0,0.0,0.0025,0.0,0.0,0.0,0.0025,0.02,-0.02,0.02,0.02,0.0,0.0,0.0,0.02,0.0,0.0,0.0,0.02,0.04060296875,0.41062625,-8.62085296875,0.04,0.0,0.0,0.0,0.04,0.0,0.0,0.0,0.04
1579082072729861693,18401,1579082072731024980,base_imu_link,0.928171164985,0.371088598114,0.0150505406305,0.0237701928175,0.0025,0.0,0.0,0.0,0.0025,0.0,0.0,0.0,0.0025,0.02,-0.02,0.02,0.02,0.0,0.0,0.0,0.02,0.0,0.0,0.0,0.02,0.1271715625,0.506004921875,-8.57795171875,0.04,0.0,0.0,0.0,0.04,0.0,0.0,0.0,0.04
1579082072748928272,18402,1579082072750977039,base_imu_link,0.928170037376,0.371082447645,0.0152449014782,0.0237863773273,0.0025,0.0,0.0,0.0,0.0025,0.0,0.0,0.0,0.0025,0.03,-0.02,0.02,0.02,0.0,0.0,0.0,0.02,0.0,0.0,0.0,0.02,0.058606171875,0.578783828125,-8.6675846875,0.04,0.0,0.0,0.0,0.04,0.0,0.0,0.0,0.04
1579082072770090324,18403,1579082072771110057,base_imu_link,0.92812831838,0.37116299164,0.0152145667636,0.0241738539838,0.0025,0.0,0.0,0.0,0.0025,0.0,0.0,0.0,0.0025,0.02,-0.02,0.02,0.02,0.0,0.0,0.0,0.02,0.0,0.0,0.0,0.02,0.04060296875,0.342826953125,-8.69324882812,0.04,0.0,0.0,0.0,0.04,0.0,0.0,0.0,0.04
1579082072789008441,18404,1579082072791069984,base_imu_link,0.928172268565,0.371094706182,0.0148561783691,0.02375400757,0.0025,0.0,0.0,0.0,0.0025,0.0,0.0,0.0,0.0025,0.02,-0.02,0.02,0.02,0.0,0.0,0.0,0.02,0.0,0.0,0.0,0.02,0.067799296875,0.48340515625,-8.61625640625,0.04,0.0,0.0,0.0,0.04,0.0,0.0,0.0,0.04
1579082072808176503,18405,1579082072810883045,base_imu_link,0.928202075742,0.371014809689,0.0148054902855,0.0238687041178,0.0025,0.0,0.0,0.0,0.0025,0.0,0.0,0.0,0.0025,0.02,-0.02,0.02,0.02,0.0,0.0,0.0,0.02,0.0,0.0,0.0,0.02,0.067799296875,0.515198046875,-8.55650109375,0.04,0.0,0.0,0.0,0.04,0.0,0.0,0.0,0.04
1579082072828787989,18406,1579082072830903053,base_imu_link,0.92810073315,0.371255208917,0.0148765350741,0.0240268117325,0.0025,0.0,0.0,0.0,0.0025,0.0,0.0,0.0,0.0025,0.02,-0.02,0.02,0.02,0.0,0.0,0.0,0.02,0.0,0.0,0.0,0.02,0.131768125,0.46961546875,-8.59518882812,0.04,0.0,0.0,0.0,0.04,0.0,0.0,0.0,0.04
1579082072849959817,18407,1579082072850960016,base_imu_link,0.928103819868,0.371251687207,0.0150061035775,0.0238809787804,0.0025,0.0,0.0,0.0,0.0025,0.0,0.0,0.0,0.0025,0.03,-0.02,0.02,0.02,0.0,0.0,0.0,0.02,0.0,0.0,0.0,0.02,0.086185546875,0.397219609375,-8.53543351562,0.04,0.0,0.0,0.0,0.04,0.0,0.0,0.0,0.04
